GPSTime,easting,northing,altitude,vel_east,vel_north,vel_up,roll,pitch,heading,angvel_z,angvel_y,angvel_x
1630597331058532255,-5.034405678698675,0.3599622655774592,0.019044423926942222,0.001276078181438834,-0.001286943943933553,-0.003996132020297053,-0.023284863841256956,0.02556294404436769,0.5583521976666247,0.000724965619716698,-0.004605986076226782,0.0021881137493774175
1630597331162262300,-5.034405857566857,0.35995848129521363,0.019044331164614015,-0.0012558000659850402,-0.0014229617222139392,-0.0029179308116955437,-0.023313991944734297,0.0255643204031642,0.5583363558884402,0.000559725918175154,0.0030577291348633136,-0.007173062172889442
1630597331265981255,-5.034415551965469,0.3599598165997392,0.01904411398070971,0.00014308292665447204,-0.0006267286052827397,-0.0032534039032434798,-0.023303758745503035,0.02563891714581194,0.5583134990061502,0.0023096299127990053,-0.0022418866532418784,0.004881608810696695
1630597331369699539,-5.0344002392079545,0.35995818851399347,0.019044467915471902,0.001899861862040473,-0.0014814505317266844,-0.004485244718273519,-0.02331621969892023,0.025521088155519574,0.5583267523656975,-0.0008919289735440166,0.0014882539894398076,-0.0010160855584967622
1630597331473413585,-5.0344114097700965,0.3599603677628856,0.01904423301348429,-0.002133956572404003,-0.0005602946271281119,-0.0028395232338248276,-0.0232994974472809,0.025607043641984243,0.5583094803969966,5.980490025514506e-05,0.004356803585368297,-0.001458012451243143
1630597331577129300,-5.034408775563732,0.35996375505921924,0.019044379366430053,0.0003588814271051062,-0.0005818325468821704,-0.004859847047024253,-0.02327341362795159,0.02558677387607881,0.558322062063054,-0.0007854602423779165,-0.007046969754007205,0.003966746989743641
1630597331680866915,-5.034406282380888,0.35996101325389657,0.019044379314599402,-1.3579805389771137e-05,-0.0019440914558091773,-0.003492589226629883,-0.023294505629288493,0.025567589271638855,0.5583085073155906,-0.0026459622310097994,0.007026114361303949,-0.004657704637213746
1630597331784530250,-5.034412900817225,0.35995765513214706,0.01904413156217319,8.424388644476985e-05,-0.001052012146922259,-0.003960783474659566,-0.023320383208536972,0.02561851699842078,0.5583180115908675,-0.00013636899401529195,-0.0010775082411178434,0.003858011006292332
1630597331888242539,-5.034399188992198,0.3599548020335271,0.0190444157086056,0.00028890918304706596,-0.0017449191788103814,-0.004365905658744618,-0.023342280311920822,0.025513006942004545,0.5583127288865546,0.00044693704797940095,-1.8784548289965176e-05,0.0013434355047452604
1630597331991960595,-5.034412394412064,0.3599536484347439,0.019044051024436043,-0.00247042713785398,-0.00045356069290555,-0.0041956223838107085,-0.023351220139190446,0.025614620295644167,0.5583176515674442,0.00033097620730641126,0.005024274772593828,-0.001634969574832651
1630597332095685539,-5.034404267178216,0.35995592568277973,0.019044312214537062,-0.0004327151372622032,-0.00035776519013366284,-0.0036141367401970057,-0.023333654976437447,0.025552082647620312,0.5583175210676061,-0.0015259544518667796,-0.003113836192295769,0.004781263579107811
1630597332199423584,-5.034406680606766,0.3599554400628868,0.01904423915950329,-0.0006969846069219074,-0.0019140024261700436,-0.0024418628826841887,-0.023337403834173764,0.025570653549248614,0.5583549700046164,3.4051321137037376e-06,0.0066823292472120155,-0.0015223955888381486
1630597332303154540,-5.03441060308183,0.35995148562260476,0.019044046387397373,0.001249469218853469,-0.0010893462420467155,-0.0028780241546993764,-0.023367858905041075,0.025600836313097165,0.558360274070041,0.0012472942638286025,-0.0031167257062508654,0.003881413538740176
1630597332406869260,-5.034394896220774,0.3599444036314972,0.01904428203011574,0.001119695058790867,-0.0006381208743088962,-0.003296752162784201,-0.02342229620329795,0.025479974887339763,0.5583452893518046,-0.0017469280447683603,0.0018611405616640138,-0.003125890445461566
1630597332510597300,-5.034407356788305,0.35995134605181056,0.01904412623336793,-0.0018056159158205977,0.0005573569819445316,-0.0026705110346352252,-0.023368918228637448,0.02557585664700102,0.5583374171049518,-0.0011266252561978232,0.0033728245975686937,-0.0023911916051549114
1630597332614316930,-5.03439652773172,0.3599532033395564,0.019044446277566213,-0.00036667046603218445,-0.000775675300871127,-0.004258851932256507,-0.023354573113538793,0.025492529048591953,0.5583341234773115,0.0010235431952115024,-0.003761404352631931,0.001453593498560239
1630597332717933924,-5.034405226284573,0.35994922822063885,0.019044131214430965,-0.000894355104035014,-0.001158345384393062,-0.002847294782592456,-0.02338520921527119,0.02555946279867139,0.5583568960666682,-0.0007564637385871208,0.0039051200373487593,0.0001900272791899595
1630597332821643300,-5.034400540322243,0.3599452755114573,0.019044158447541953,0.0013009481780767418,-0.001330444877131403,-0.0015430565288429225,-0.023415611360710697,0.02552340517386924,0.5583695026176201,0.0009255762296980221,-0.004279843795986247,0.002715270876109314
1630597332925344255,-5.034399802144282,0.3599401194696467,0.019044056439227908,-0.00016372745508601283,-0.0009587997445530631,-0.0030028342325017334,-0.023455293639190942,0.025517725032227472,0.5583478617654634,-0.0007238199863714384,0.0023151708938910684,-0.0015412172583315713
1630597333028974585,-5.0344097557792,0.3599478443957783,0.019043982932749504,-0.0006409997614542417,0.002443018814783722,-0.00110309348589514,-0.023395881278050333,0.02559431646465252,0.5583592444692473,0.0011940323002814868,-0.0018536896238406427,0.0011192059591815754
1630597333132616260,-5.034400277549453,0.35995022664504817,0.01904428101804398,0.0018060759562886237,-0.0013532669529482634,-0.0019119463840549765,-0.023377501672302736,0.02552138318619919,0.5583443730727935,-0.0001317742198096508,-0.0005470643376720915,-0.0003809253575612377
1630597333236277250,-5.034402997602609,0.3599511119566558,0.019044232233117298,-0.0014930173081200962,-0.0006432241199231651,-0.002034372564577214,-0.023370699997236708,0.025542313493612644,0.558326723100744,0.0003120770359242004,0.001018875461082587,-0.0037413852027793288
1630597333340016300,-5.03440497844176,0.35994362642620087,0.019044006408191455,-0.00018824559996097917,0.0009213838795277836,-0.0008495636210276392,-0.023428324689177545,0.025557555692634962,0.5583384035784033,0.002170100400946672,-0.003934918631852218,0.003612464115155067
1630597333443710255,-5.034400292181143,0.3599543340389755,0.01904437661758196,0.0007095408716444137,0.001121553405065409,-0.0027046449652828484,-0.023345887482400293,0.02552149577432458,0.5583302922297768,-0.0013740965072779811,0.0006810269789700168,-0.004249601245813601
1630597333547387540,-5.0344087183411865,0.3599575228974013,0.01904423561184798,0.00010287318433878382,5.450584600240748e-05,-0.0013481911979729957,-0.023321381785627798,0.025586333558526693,0.5583646467639304,0.0020318376437198247,0.0015638825756542553,0.0012993260813079866
1630597333651106245,-5.034397996604549,0.3599536897186004,0.01904442016597699,0.0017129256865609265,-0.002109230971121428,-0.0022798056164776625,-0.023350836231854022,0.025503831744424717,0.5583624263407874,-0.0021769612942108734,-0.0007440630151435751,-0.0002136308244579197
1630597333754829544,-5.034403796754859,0.3599542097540354,0.01904428418238055,-0.0012892328330101075,0.0011779391630633684,-0.002359257076757166,-0.023346860175662773,0.025548462824934372,0.5583449803093496,-0.0016328731211281275,0.0035802085973289125,-0.003031050714790632
1630597333858558590,-5.034409759884203,0.3599613408641094,0.019044297945630784,-0.0006131191688353563,0.002477484159143846,-0.0012236896772754935,-0.023291999992862984,0.02559434805194473,0.5583467248535572,0.0018666196192970662,-0.0031207257463879727,0.004874011631074587
1630597333962278300,-5.034388502950284,0.3599653672059605,0.019044934265088326,-0.002063780795193288,-0.0022285651404422824,-0.0001018436914699146,-0.023260912482923793,0.025430779945850444,0.5583278854956788,-0.0016672551123969274,0.007648867522771202,-0.006125515147386569
1630597334065974585,-5.034398353580986,0.35996270273859876,0.01904462124379344,-0.007372391539400322,-0.0005435551293729293,0.0018447603009029798,-0.02328146553037344,0.025506578610404226,0.5583226337901943,-0.0005225647302308502,-0.0033884634744698163,0.004473220686605846
1630597334169693539,-5.034377859070882,0.3599492956467715,0.01904482974222846,0.007011242353706001,0.00305563468162909,0.0009490547817866927,-0.023384564843435224,0.025348877552930645,0.5583479967367833,-0.001309606849529187,0.000333493397616445,-0.0032884350139604293
1630597334273435585,-5.034372236913791,0.35997309913411835,0.019045526758731057,-0.003191384505988086,0.0015835954613409079,-0.006404322742529408,-0.02320132711932796,0.025305616316048704,0.5583186978625541,-0.0007138948863734849,0.005945762726922956,-0.004403991093230792
1630597334377073245,-5.034393954196737,0.35995743246452305,0.019044610608542373,-0.005616153622304339,0.0020638077106966803,0.0015495016838795819,-0.02332201017131747,0.02547272619636656,0.5583680626594203,-0.00037868459030712665,-0.008021725152267437,0.009396420037559918
1630597334480778300,-5.034377627580914,0.3599637768195656,0.019045173503069585,0.005869229712422638,0.0012789743649801667,-0.002649979037617576,-0.023273104028075708,0.02534709628864901,0.5583669943406182,-0.0018514763048235233,0.006756506778729136,-0.008861380918508174
1630597334584479249,-5.034381406604235,0.35996181301075675,0.019045031887271746,-0.0019572918884217055,0.00270765875252042,-0.002268990684389026,-0.023288236381120746,0.025376175050227413,0.5583835094661749,-0.0004715386959572203,-0.0009396757236696891,0.0032096255575296577
1630597334688200965,-5.034402293841925,0.3599612858647786,0.01903971255392113,-0.0024844397659464054,0.000476002705968421,-0.0021690616990279327,-0.023324220796761264,0.02550206094330495,0.5582994452486018,0.0015278606588411147,-0.004034441588875552,0.0019700427304576978
1630597334791930580,-5.034567000553322,0.36011304727928123,0.01896586893440201,-0.0023303732793989607,0.002138355134130539,-0.001847933998688457,-0.023201387696715738,0.02562038491998133,0.5581012690455215,0.004067897083485864,0.0011806559917567879,-0.007930687231299409
1630597334895574254,-5.034717926999647,0.3603880147591138,0.018849489182083096,-0.0007840744072440214,0.002227048372785087,-0.001403948036787781,-0.023087284302812493,0.025741736912384808,0.558138283021556,-0.002295943570296974,-0.005962663673162108,0.006802513433666292
1630597334999291540,-5.034725169778785,0.36080867944608236,0.01872805677447907,0.001639399592656689,0.00477102387912207,-0.002132186495796085,-0.022838071085643806,0.025800037248879134,0.5584084867836802,-0.00444439089640534,-0.0010264228073477858,-0.008226994716362443
1630597335103022590,-5.034198174746938,0.3613270774111975,0.018546243913860325,0.009358179495578562,0.004535920215216764,-0.0022583060067595116,-0.022815440055239236,0.026139903209461482,0.5587801749509155,-0.004689058089475444,-0.002084862188674943,0.0053964644612504295
1630597335206663910,-5.031825141375348,0.36211626562529653,0.01812472467899795,0.03736671890926172,0.010001729312382761,-0.0061905695513954865,-0.022867478618287657,0.0265300562417759,0.5591734867654088,-0.005536756944253283,-0.006318172947701987,0.0010664425542203063
1630597335310394300,-5.026369983424737,0.36366845871166503,0.017660746498058114,0.06931601612206269,0.01991730627584442,-0.00305636833915819,-0.023014450665778043,0.02721280066065681,0.5595732594288418,-0.0029135440039814073,-0.0005624993740649357,0.0036785935118200047
1630597335414109245,-5.017397889460331,0.3661996209409191,0.017807383810536745,0.10138216659752647,0.02808630239984753,0.006799275289682294,-0.022957763270015506,0.02722369987749914,0.5601986174001572,-0.007384405630897358,0.0037989935312625076,-0.005502743234500523
1630597335517821539,-5.007117604058877,0.36949161901742994,0.019083128196177482,0.09605362454526191,0.033940289168447206,0.015102446387843336,-0.022394668421297864,0.026338983702207698,0.560846974698308,-0.0051852872491537135,0.004875042731238618,-0.012681232731636374
1630597335621550585,-4.996905844672351,0.3726868998984005,0.01992975360947148,0.10182646332512688,0.026031274809313613,0.0006997549764945658,-0.02176187719844385,0.025930734510660407,0.5616197323019385,-0.010167237233157033,-0.0033007627019837555,0.002540406021475642
1630597335725178590,-4.985655603103908,0.37494538290203105,0.02007931459995417,0.11533048644051254,0.019515002890797134,0.0022509122539033743,-0.022064539557778207,0.02612954067428316,0.5625957781749751,-0.009404580333534123,0.003745760826940485,-0.002991162800045243
1630597335828896625,-4.972901671886109,0.3772156593792545,0.020559906447742,0.12835439672989427,0.02255062552203569,0.006421074243007499,-0.0221895070552304,0.025947431302894154,0.5637650041705533,-0.00972852553473602,-0.00036592476321162823,0.002292154289888951
1630597335932614260,-4.9585859165685395,0.37995541532566884,0.021059039721162617,0.14727623238318815,0.03050487644873722,0.0037026431421242623,-0.022306464801873618,0.0258478277561022,0.5652317697264849,-0.015257881905907994,0.0006001077667271283,0.003209113536534332
1630597336036268585,-4.941869275868723,0.38349483640821674,0.02141999381612604,0.17547014258815657,0.03772825428611549,0.004339634161845673,-0.022190129739707107,0.02601397548329929,0.5670680882885448,-0.017997517587427413,-0.000817405472348323,-0.0026873988795738206
1630597336139982874,-4.921314137987878,0.3875639673889733,0.021739155032456325,0.22013418702931506,0.04253949793788299,0.003006653797334392,-0.02203242058833757,0.02633813412922548,0.5692953417606761,-0.023280458674999508,-0.007565227485251822,0.0004033730008026408
1630597336243675254,-4.894753550309016,0.392206974628055,0.0218875149420676,0.2920986343857255,0.047435468809092864,0.002025362094156436,-0.02194595251178511,0.02701237967811096,0.5723430596400341,-0.03326744170719479,-0.003787639220530901,0.005982252662537502
1630597336347378965,-4.859854760689598,0.39758580894595374,0.022278842251097067,0.37968385013554873,0.05964167007858014,0.007955398229134268,-0.022254775924143985,0.027504545375038682,0.5761363213254407,-0.041023029751116144,0.0006497666889449371,0.0015010259007085902
1630597336451089250,-4.815571722600446,0.4052552094586125,0.023402350069170547,0.47337159088025693,0.08932394463497444,0.015499312380951178,-0.021694270703530034,0.027434557266522018,0.5808161341634194,-0.050184194917601864,-0.001861664695523378,-0.008531031750851074
1630597336554821300,-4.761480002396471,0.4151938769234311,0.025189206480207782,0.5674307333667442,0.0980872192260852,0.02189828196914628,-0.02071020520930606,0.027185571480223495,0.5869900860482653,-0.06482211997305688,-0.0011223276714187646,-0.005225114534472093
1630597336658631300,-4.6981120631959215,0.4243771911689082,0.027741252893721924,0.6500016110209842,0.07829713355576508,0.02846502371612392,-0.02070731417245007,0.02681116683045284,0.5939069295556301,-0.07075417753729574,0.008784750840284062,0.0013521536525066412
1630597336762342580,-4.627121717208907,0.4312636714410031,0.03055710975458635,0.7163932894702947,0.059332666079273434,0.025793454838967333,-0.02190892401833035,0.026555879555378317,0.6019473433341767,-0.0874837097997062,0.009497409211467564,0.01715848345870709
1630597336866066300,-4.548959552179437,0.43709581339282283,0.03280508856070308,0.7907487376185082,0.059215265710182714,0.020179554998276627,-0.02405708654773409,0.027123968307117018,0.6118862274206194,-0.09980782055333122,0.0033431548681805597,0.017095890064661542
1630597336969872300,-4.46232499779834,0.4436824885694644,0.03474651215001354,0.8770704097206569,0.07248456173317869,0.01962907644647831,-0.02591077964456623,0.027993195205298207,0.6225193085683265,-0.10393419982182568,0.000294538773521022,0.01708320459030553
1630597337073577254,-4.366118479587125,0.45331998568105164,0.03663240656091217,0.9766106731668349,0.11867267214584543,0.01800245893811926,-0.026115439822463584,0.02861376354113493,0.6338820802254114,-0.11576000207294032,-0.01226066711011422,-0.009559044916703233
1630597337177292300,-4.259377506000922,0.4668265781137918,0.038290954002625416,1.077134172124595,0.14316475076406976,0.015919424619001112,-0.024096545141093426,0.02901183767260229,0.6467872016579934,-0.13292349880355092,-0.02236242688276356,-0.016826328048871003
1630597337280989590,-4.142575594357186,0.4812045419528235,0.03957309678402189,1.1707461900256084,0.1321267418100229,0.012696329866918045,-0.021316316831885215,0.0294739899529651,0.6608145041594453,-0.13910794253064399,-0.018923987915487446,-0.013125021411522624
1630597337384697544,-4.015898855183538,0.49291420843210465,0.04062507099671035,1.2693013251017418,0.09470979049230448,0.012120968467892918,-0.019582894303466363,0.030087807953663212,0.6752117129914572,-0.13914845388018468,-0.008491148379570433,-0.0037666970950176594
1630597337488412254,-3.87899999430042,0.5005414981074898,0.0420411450531125,1.3670403674284177,0.05813441585406974,0.022023849296059612,-0.01928332677831608,0.03035522106154496,0.689822206166735,-0.1442269105798277,-0.0023421900833299905,-0.004134446825311041
1630597337592044584,-3.7326033417951296,0.5047802579998699,0.04437252321194854,1.4539829359186178,0.027542754083824613,0.02802659368550879,-0.02035135715340164,0.030200794888701116,0.7047503747419688,-0.1444920651019744,0.015501184464798617,0.005020633785826967
1630597337695682250,-3.577269750468609,0.5058859479988956,0.04756749842192291,1.5404673391687664,0.0016452351550321248,0.03728716374808097,-0.022255302173244243,0.02965933489319048,0.7193770714517627,-0.1385310274286214,0.016254113541234145,0.005560614939643535
1630597337799314255,-3.4129305439856488,0.5066810110181487,0.05074000432883646,1.6268055612720198,0.01744034977936949,0.029011159246412756,-0.023623804526075185,0.028893834860844663,0.7336305978652506,-0.1391258005361163,0.013895770173710405,0.0016760483619521465
1630597337902954585,-3.2399613819673454,0.5100739796499566,0.05330347175552691,1.7049799231945317,0.04777832045871485,0.024286819728744864,-0.023365279928706652,0.02822583234309188,0.7478167804931886,-0.1354398239251239,-0.00939614285803002,-0.014205776859714914
1630597338006593249,-3.0586228511383293,0.5153380558405268,0.0553387422173639,1.7896098549561275,0.05066273674147742,0.019153256773004508,-0.021036181049085674,0.027735816863148886,0.7613941042882437,-0.12474462084277148,-0.013801687751020614,-0.020336987594843904
1630597338110237580,-2.8685086187312008,0.5178774271923542,0.057848362528209504,1.876260211561283,-0.004025879444762545,0.03268733830396208,-0.01950099577550173,0.026673635517160066,0.7737456816367303,-0.1100894090815811,0.009394507282588416,-0.011022201275824069
1630597338213809300,-2.6697846307190067,0.514071283203733,0.06175032871092488,1.9560878539233744,-0.06659802855848301,0.04875556627732337,-0.019939332709017592,0.0250030954645727,0.7840957884934752,-0.09147065425487536,0.021300280479035517,-0.0028944308440212365
1630597338317357915,-2.4629398034545207,0.5054054445423709,0.06702282103097293,2.032221471646879,-0.08634026673327191,0.0582404510155111,-0.02258641352657437,0.022445447123776274,0.7927635342245007,-0.07976313276652108,0.028343527187920416,-0.008135178077808175
1630597338420990260,-2.2495472872668443,0.49774121397148124,0.07185025584112387,2.08131816294517,-0.059264641029163206,0.03927900059462462,-0.024443829475365053,0.02043954734984123,0.800064325542186,-0.06453871218626515,0.025169983555290203,0.0037562005465398025
1630597338524536300,-2.0311563122818224,0.49394450448175503,0.0751603905723536,2.134638509599615,-0.013737847524467465,0.02923008883904211,-0.024437037914293823,0.019900084385733204,0.8057287453446409,-0.04513367381705389,-0.00826451039103564,-0.01105433339856154
1630597338628068580,-1.806395556706335,0.4928905445028554,0.07754986268192579,2.1992646710818393,-0.002388109786453989,0.02074951560107416,-0.022913984911064278,0.019458793561821796,0.8094471001308525,-0.02717429870221106,-0.01763133058896782,-0.015237833879076785
1630597338731702585,-1.5744455055501492,0.49246345926867113,0.07894048112889959,2.27318747779178,-0.006776711106249934,0.013748440648353646,-0.02098128169364898,0.019409202586336428,0.8117339227397085,-0.017069479325330032,-0.008057256145835618,-0.013326236665659005
1630597338835405300,-1.3340693222130384,0.49026265764178306,0.08061416456149503,2.3576255794629812,-0.03376854803493637,0.023322745786960628,-0.02028180613136424,0.019170182423186813,0.8131886599547937,-0.009507332223015447,0.0028617584467030915,0.002413299060290438
1630597338939112580,-1.0847448922439886,0.48513746711226424,0.08312004183569868,2.4433665106809324,-0.05942026865062599,0.029275462722267793,-0.02079462185948134,0.018021905989698588,0.8137961222225895,-0.002233519296937916,0.009378735869618134,-0.00515445740117427
1630597339042830539,-0.827492542863696,0.4788696358228721,0.08562674037033635,2.5114067848532917,-0.05395034682332095,0.024803682331157983,-0.02192532591606175,0.017287807787032268,0.8139382983705047,0.0003159624403224152,0.012687232070863082,0.0026051565197554106
1630597339146646300,-0.5627302546656344,0.47518631736868455,0.08819062363190341,2.5811545749247182,-0.012049755287492246,0.026182954507827837,-0.021933290317021115,0.016805962866685877,0.8140885427751615,0.002721843157020018,-0.010596825427091783,-0.010419003585944853
1630597339250448300,-0.29067300484943404,0.4737876511912082,0.09060241975749019,2.654488906706359,-0.015254977596567375,0.024087919720309055,-0.020464982518513693,0.016499406205696874,0.8137555201212765,0.007479983281018647,-0.0027350274489929194,-0.008520870385767567
1630597339354269630,-0.011281843241685068,0.4717754727724308,0.09248197812495651,2.722252447259623,-0.015932016928165045,0.015964215345052307,-0.019970782972259828,0.016182285292815103,0.8131070999298898,0.006432547777613811,-0.005503620343516628,-0.002313776502224941
1630597339458168925,0.27597460138434016,0.4699770220720036,0.09365707647533678,2.8001579635781786,-0.019714685779849226,0.014653727782019935,-0.019020307766527193,0.01572439051430175,0.8122204517232408,0.01001524466650092,0.005738895678482521,-0.009770154368512201
1630597339562064300,0.5704270891760593,0.4680325670346012,0.09576750228146087,2.8601985661097995,-0.009416294564752159,0.028657344158826595,-0.01872151810877653,0.01496645707757717,0.8108720152533602,0.015065493538673974,-0.004725447490231418,-0.009064458166015836
1630597339665872540,0.8714129436023341,0.46787654088982666,0.09830395175757597,2.9283745798533705,0.01034975542080468,0.026116134548987854,-0.017358408410214618,0.013979403843722453,0.8091861513490027,0.015058848586558257,-0.009847639342871342,-0.0217208448670587
1630597339769690300,1.177881446114142,0.46774540609134047,0.10048432800283522,2.9676878378833473,0.0003278656203361486,0.020414074020789735,-0.01677572624527383,0.014028294743490642,0.807515444229491,0.016415500327159153,-0.015408285941053392,0.0010864320272656056
1630597339873476540,1.4897215098817136,0.46677035516312526,0.10193010819168777,3.029217937471677,0.0031894735131074822,0.01983385247648076,-0.01697732537412331,0.014921304205816973,0.8052575578104567,0.026336448681705902,-0.02520029713003526,-0.0008679632355999972
1630597339977260540,1.809000749438503,0.4648906513035268,0.10316169686613949,3.1249602928738347,-0.03758096895568962,0.01032894729487773,-0.017642196355375325,0.015039803112330153,0.8021463563073268,0.03185943372008682,0.042352801285882556,0.011731841185841125
1630597340080967240,2.135243378201738,0.46628976213027534,0.10497782129410571,3.164358816599387,0.059384992499435595,0.028488738921669397,-0.018035493950689072,0.014307452909716108,0.7985922289913236,0.04146198529978693,-0.01616893274491398,-0.011724507596729569
1630597340184602925,2.4663658560134842,0.4748863534641038,0.10780472111088318,3.22488376835418,0.10466227864093233,0.029284799165190417,-0.01560033153743479,0.014407849386880209,0.7939533213733103,0.04957146711424182,-0.0038314377111168182,-0.02125695398473946
1630597340288253580,2.803409863207594,0.489325781083477,0.11004948034134032,3.2773378223337404,0.16137033107634818,0.015853786995436048,-0.010639240206807012,0.014765525629970957,0.7888069062353524,0.050444965924777506,-0.039979695355413646,-0.022619896666293767
1630597340391902255,3.14629801895418,0.5050510793206342,0.11170845436910334,3.334500946548298,0.1303445802979838,0.0196860341332445,-0.006139381488139229,0.014636500076059659,0.783853066853381,0.04604731233149282,-0.008058852941376978,-0.011847643004391784
1630597340495477539,3.4944444995956445,0.5189052741249499,0.11282112540838385,3.3850239156322735,0.1446510906323876,0.013578053136492844,-0.0034246586700884657,0.015089977408984073,0.7795500310416554,0.04306783333871439,-0.04130785577874365,-0.03870808829043305
1630597340599041590,3.8489347251871098,0.530947673191223,0.11552898713554538,3.444806349351238,0.10052158544100843,0.03453914345124668,-0.002213658433008999,0.014396754911018099,0.775268480278388,0.041167989845154365,0.004818356428792008,-0.010262461096052264
1630597340702671584,4.207949970407156,0.5426388114776073,0.11940059981332152,3.4737967437582924,0.11813866485408143,0.04776184008546023,-0.0023194761755547665,0.014064203937391486,0.7713123202586457,0.036073889918824396,0.015452497605403764,0.019360157655464727
1630597340806298915,4.568425254056496,0.5567397332479413,0.12303971111188779,3.492218497945866,0.15263575504195123,0.034710988243128994,-0.0014553843198910803,0.015972002280039616,0.7677977535550576,0.029889014871762022,-0.015423322578760133,-0.01934057982286686
1630597340909934255,4.930712519773972,0.5741905785148732,0.12757959606997485,3.496449482298631,0.20224562328404616,0.053382239401370615,0.0008196225117709281,0.0185429242413297,0.7651445222460922,0.023641783711989724,-0.07924419369348994,-0.01557253331774585
1630597341013582589,5.295417532212904,0.5954806627914662,0.13213265779436353,3.5316340340147083,0.20825749107297237,0.0389956414182566,0.004302471853207423,0.021526874411324982,0.7632267359012342,0.01608844568777719,-0.023735110986950362,-0.004742580005948923
1630597341117290874,5.663361185757596,0.6161410748214823,0.13558070834870084,3.573465933409096,0.16718737751537832,0.040918235699802324,0.006779453039951642,0.02474180311821915,0.7619958742834185,0.014837393548596839,-0.014267361775326164,0.022629521672480255
1630597341220981245,6.036105349589648,0.6320927817410531,0.13860280209420145,3.6117575094032075,0.15309412573007963,0.022553872610303304,0.0064473524971390105,0.026864592398230493,0.7606607079958028,0.01523501599814554,-0.018096709081355425,0.008497653832496503
1630597341324708209,6.413713029330616,0.6464359203405362,0.14130279408950644,3.6647999314216566,0.13025367540853172,0.03636388223709607,0.005481786861426063,0.029048867012231944,0.7596731432417727,0.009089334512455983,-0.0020010303484496988,0.02075277507525973
1630597341428526540,6.797201402673745,0.6611838334173181,0.1458739649632889,3.7061378534679448,0.16470502646251808,0.051571546301278554,0.0037828463236892207,0.02959624940678604,0.7586429478269774,0.010970632559842968,-0.0017250204091159337,0.014722460463734606
1630597341532339300,7.185080558516465,0.6804910218999207,0.15398179482568508,3.7542285716693593,0.1968862000857995,0.10157870947218853,0.005320770432965396,0.029330996115647743,0.7576840943584593,0.01027616207141403,-0.01311250749523853,-0.016857703108201824
1630597341636131540,7.575765337940198,0.7031113727549788,0.16473147424419232,3.772065752710784,0.23131552759985907,0.10840719165719936,0.007736776351136786,0.02885512946775754,0.7566844856570603,0.006869533666468826,-0.015635198919934843,-0.011867886242798751
1630597341739937630,7.969223402132995,0.7243343979224292,0.17542400817423623,3.8005680472786776,0.17663811961478434,0.09763555079749482,0.00861093136240978,0.028990468782599456,0.7554037885301808,0.012330899213838354,0.0131115252689343,0.009899812973000476
1630597341843752300,8.364790174220076,0.7416954164704976,0.18480357926875857,3.8146516760556954,0.15349666396352493,0.08635879925737949,0.007764835596044981,0.029645607996851394,0.7538051543056166,0.014019278725574947,-0.003137146823796415,0.026853312457917472
1630597341947479250,8.76186750980687,0.7579151372296928,0.19264875864563724,3.834914137762955,0.17665600641492685,0.07317983578691435,0.005403175963643091,0.03137638631234971,0.7521878748384143,0.014439884514964795,-0.012260739593612366,0.023848056269750235
1630597342051208965,9.161176914337432,0.7768017233134389,0.20009224160477507,3.8583655870227687,0.19553236083965878,0.07384240873457062,0.004518423165365909,0.03367678789380824,0.7499323421352113,0.030652625244231013,-0.026231247980290653,0.01424517802654588
1630597342154926245,9.562503276268922,0.7983638567258193,0.20863376173310075,3.881261211771591,0.23478068593115906,0.0949921043972668,0.0037570059439105768,0.0367831679196716,0.746290529347567,0.03564033505657953,-0.025699896544885765,0.015554148003405058
1630597342258556925,9.966899524078395,0.824653236317978,0.2193774650540585,3.9216807347758817,0.2704481448082591,0.11716743641280894,0.004291904737395548,0.03887467047907463,0.7422089452212296,0.04191642273607225,-0.01099461240209373,0.0037870916311403932
1630597342362205250,10.374979383432285,0.8537011600753749,0.23137105283176385,3.9514084367102895,0.28738791801276586,0.11636247695890786,0.00471498465245833,0.040154257404388854,0.7377825164266425,0.04468728564068796,-0.011738207954044493,0.0055216572114015995
1630597342465859255,10.787073616399459,0.8816805493846307,0.24292079969124725,3.996831500138111,0.25927296621782336,0.11240819678511982,0.0037363373947120787,0.04054695254985102,0.732821827442688,0.04456981793752393,0.014653202254797465,0.013283994116268594
1630597342569492585,11.203095630172276,0.9102853928367549,0.25386508382739126,4.025479723621972,0.2942013357398235,0.10798173605701533,0.002208200095382652,0.04013956911181255,0.7285472968432534,0.0333349289880205,0.013049389603441123,0.006437744265102191
1630597342673105914,11.622311596919397,0.9431659965726746,0.2649772805048083,4.06676380760861,0.3389117770422937,0.11431091215748376,0.0018086705338732484,0.039268067968894885,0.7248593810700443,0.03801321611315536,0.013120603948624857,-0.017882358794619118
1630597342776644630,12.048339670308113,0.9795170552394055,0.27711404976799225,4.165054200919878,0.36177526480337485,0.11353242755943332,0.0027533813058698725,0.034865834725784764,0.7211866524028008,0.03606352810217678,0.041856482180588406,-0.05546652830371213
1630597342880185240,12.480568799057739,1.0206417680080646,0.2890044628934092,4.167719633114914,0.43672743605148184,0.12247021888791548,0.00593613094203816,0.026432727503763496,0.717359940693564,0.042006191562213156,0.018780287960019917,-0.09647784326589036
1630597342983830245,12.904294339261703,1.0645268397922625,0.3038528733524769,4.006356635451107,0.4087692652322813,0.16218620079640497,0.009158467924616694,0.023190232874371466,0.7134680006205041,0.03277668373073417,-0.009319296481981083,0.00831658458614773
1630597343087550545,13.313504362784757,1.1046956156000691,0.3208562235789889,3.894717655078358,0.3727168008919605,0.16274188515202392,0.009061718317911176,0.02961145802316334,0.7099697718150568,0.03272403549601176,-0.07060208355774927,0.05937682221145053
1630597343191262925,13.719206187034194,1.141360610224247,0.33601947697053025,3.9274773617698293,0.3437174986610345,0.1276801340807568,0.007452877262381075,0.037186255141847584,0.7060602937119422,0.03907138624850078,-0.02061789228338659,0.051628695934169855
1630597343294973300,14.127905984087876,1.1792361030774354,0.34740810391120236,3.9438422060243172,0.3930953513712993,0.09042347334387658,0.005746129066458077,0.04042400610704242,0.7021281388687364,0.03709160865818866,-0.016219906657542308,0.015907892417202918
1630597343398664255,14.535154090690439,1.2209508749713334,0.3532039385274357,3.8986791932800853,0.42039341790743495,0.010799567402634361,0.004754693967076022,0.0428772544459746,0.6983902689457084,0.03666706693139699,-0.02783906462049797,0.021951889727496406
1630597343502389300,14.93647548617151,1.2682548359773782,0.35291473548783303,3.8536886215978545,0.48817060717850624,0.004174117162012398,0.006433470123355675,0.048820151504275856,0.6950238178081287,0.02919715470028601,-0.0630322297887898,0.014420785853501577
1630597343606177209,15.338813958268004,1.321293262021469,0.3617705527830727,3.9097289033410743,0.5274810925786212,0.18693157524804843,0.009846820216175209,0.049854619768076126,0.6924638585546985,0.03249646886238856,0.009921462415373367,-0.062242483469177386
1630597343709985300,15.746213110461333,1.3741774348448408,0.3881160483823104,3.927786996007594,0.4846501736173317,0.3091600282314578,0.014301148198898923,0.04230272027776259,0.6883983007655521,0.04325025804669983,0.04925574088399198,-0.07615167049555698
1630597343813791875,16.15040216248945,1.4217412138402112,0.41733518419949184,3.8507897214188755,0.4368266543958908,0.2459856970528481,0.014636531166974932,0.03378758969637762,0.684501111494338,0.03395590401234404,0.058527538164640194,-0.03358538221211394
1630597343917615300,16.543555539065224,1.466925226964187,0.4355281386243281,3.7256658263728006,0.4363220502903619,0.10825830803591044,0.012652436978553441,0.03155135495721904,0.6812539452077375,0.03500517633399727,0.0056664774523541486,0.022683585468101307
1630597344021419874,16.926577054011034,1.5130321822521018,0.4424928503342848,3.6580569124392928,0.45091639821660245,0.03819641108352193,0.01071570092930899,0.03438356061690376,0.6771227220902697,0.045037753026264435,-0.015908186269023804,0.03864545407196647
1630597344125138255,17.304830188015213,1.5629622596114305,0.44685594419240227,3.6376281093519744,0.5126236717646688,0.054592015483134526,0.010517399932570027,0.038153960974794156,0.6726816395836903,0.038787614086648346,-0.03031528836328163,0.007381166448353462
1630597344228849540,17.682429093363698,1.6173850396171325,0.4550163310635782,3.645707803329614,0.5378048478290508,0.10412330117736097,0.01187029306865909,0.04032118559487026,0.6690063519984297,0.03348732939595784,-0.01523223827545528,-0.003387389941614912
1630597344332586250,18.062104726680044,1.6733141003366747,0.46761958987688235,3.6762658467991,0.5376825943026139,0.13589167091909038,0.013113323564702623,0.04024863576395997,0.6655915419440106,0.03290571509885044,0.005885570936098044,-0.013499915627205438
1630597344436226250,18.444386195303554,1.7281344360779352,0.48141235454234294,3.6987434386456903,0.5194825656044502,0.12986964837680984,0.013176955235687219,0.038965145370961546,0.6621335155055543,0.03501155380790301,0.011094013284015387,0.0006423712087246366
1630597344539862915,18.82888112905007,1.7816093639446136,0.49357309619491263,3.7204362147861554,0.521744786061249,0.11030172621352347,0.01174702610791016,0.03809036223432714,0.6586655636551078,0.03205124788834857,0.012989601563125982,0.006225327618053116
1630597344643586300,19.21598433254285,1.836774042495851,0.5043255497854893,3.744429105771732,0.5455174041743568,0.10265998672125358,0.010246823279446494,0.03797554042295347,0.655500180878762,0.02815766172917513,0.0053844005759082275,0.014312226308332333
1630597344747308915,19.60635812641834,1.8957354421710289,0.514731125742808,3.7854169218161133,0.5852969907687646,0.10434526362937234,0.010266084820698783,0.03834233256747942,0.6528170323045508,0.024893362150807983,-0.003469197834189,-0.0023731534329154763
1630597344850956585,20.001412600298117,1.9572454668194497,0.5259917732106822,3.8384029207883463,0.6013715265647612,0.11665663868541384,0.010511613717092695,0.03796288336808702,0.6505772070157436,0.020348981774192004,0.006143253656777207,-0.004456161946647482
1630597344954600589,20.40202409526402,2.019426597645056,0.5379634117491566,3.8914836340199686,0.5937226930766756,0.11675143690337385,0.010604222367867188,0.03667877753935708,0.6486456975505142,0.017045716717044013,0.019463725432049477,-0.003474782047334037
1630597345058255255,20.807143703363334,2.080727418299643,0.5494241276269098,3.927123855684579,0.5934779018055386,0.10353125025157214,0.009460205404105198,0.035558769184858584,0.6467823953541432,0.017829077637588557,0.011775714090719841,0.0029940450499953497
1630597345161909590,21.217382634325144,2.1424556116733493,0.5596960797140568,3.992373570367373,0.5883451166937705,0.09228581939266418,0.00810966802021503,0.03415873089985641,0.6449292898389973,0.011932083502113397,0.04251010000839331,0.01106758516373164
1630597345265562260,21.632501582358582,2.205559142162289,0.5694572140443764,4.008686811013015,0.6267759330330116,0.09831794540841599,0.006490421682920403,0.03138463645474032,0.6435429493224685,0.00814570748145594,0.02338650394916602,-0.002556388935464773
1630597345369205589,22.048016821470135,2.2727701649055607,0.5801146085795463,4.006239286991051,0.668130648059745,0.10726648272862205,0.0074055707451715904,0.030132601200858287,0.6425429039190733,0.010769492949496017,-0.007322117958843827,-0.027018187346567725
1630597345472938879,22.46254235704839,2.342622016388456,0.5918761379591683,3.9848642646948735,0.6802453703128014,0.11894734936954551,0.009180351675877744,0.029794102115812838,0.641689228879074,0.00740090621485536,-0.014367976525108765,-0.007374416473379651
1630597345576678260,22.875412346672917,2.412905725238932,0.6035602161999918,3.979122581639396,0.6643960777378928,0.10523510537446136,0.01116744126495279,0.030619223463198453,0.6412483056731308,0.0006583491753477816,-0.0016440479102092032,-0.004643260282398335
1630597345680421300,23.288873550089335,2.4792298221208524,0.6142663570074084,3.98926911304807,0.6144029963608271,0.09988558301392916,0.010976178730774026,0.030551236405778344,0.6411692496376928,5.089392557686427e-05,0.0035597957860606954,0.007476392634503936
1630597345784147585,23.7025735468101,2.5414030273410413,0.6224249858513616,3.9849862378322762,0.585332175335398,0.06098584617124501,0.008981286622313943,0.030055729222317605,0.6412106805450015,0.0026816855482635783,0.020035805500118905,0.01754086079626673
1630597345887855875,24.1137380124908,2.6019195779074953,0.6287215156951633,3.956981042087738,0.568251159482017,0.06674910868513609,0.006435045732487855,0.030933135202057715,0.6410409616606432,0.0007213217002185767,0.028746825180266167,0.05184917530091284
1630597345991642630,24.524237959785015,2.663639278520916,0.6371508207402442,3.9514613443764666,0.6157508724566189,0.10172207449881748,0.0038387689224077494,0.030999905772585292,0.6411708140611654,-0.0027122084143975803,0.018490783337805083,0.014202006014634451
1630597346095372585,24.93337966514586,2.7303036656710873,0.6486358160170832,3.9319219129985226,0.6675040634869917,0.1224110282645926,0.004715083109268577,0.030268003097511653,0.6415910233452413,-0.0032127492154574258,-0.009281655647114244,-0.027629578383109216
1630597346199111539,25.339122680585707,2.801120462469857,0.6616784127264106,3.8916841920051977,0.69026579943314,0.13044442975304674,0.008058949609594393,0.02949597345251546,0.6417789061236732,0.0011754391483911808,-0.015878096962807994,-0.02735035423110536
1630597346302935540,25.74167760484085,2.8700904381642314,0.6730231226976816,3.8641099633245064,0.6447816478453373,0.08963581356948758,0.009947002454901452,0.029181091670756096,0.641601339235025,0.002195796181722114,-0.004945038602883752,-0.016923647969983635
1630597346406681245,26.141308075030512,2.933084397317934,0.6807437842956724,3.8422580044074532,0.5735452477311176,0.0644153314433271,0.009327821674772379,0.028897589512420104,0.641283216304804,-0.001699187491554995,0.028881404608767966,0.02194809435135404
1630597346510319589,26.539525103489847,2.991844471148833,0.6875754310661188,3.8389509556764305,0.5654523013728042,0.07115405189288082,0.0068216539223261465,0.027978068991805924,0.6414117500687968,-0.004537681588018506,0.02506037835838709,0.004595413293500106
1630597346614029965,26.939141620358825,3.0487301697690357,0.6944449369258101,3.8103913240929943,0.5129512667658693,0.08388643907094272,0.0039633469010571035,0.023954998401420787,0.6413457457593592,-0.0008967846457892077,0.031703848736814616,0.05098302251743745
1630597346717746585,27.328422683193704,3.102716753417713,0.7043142311541173,3.6966096113778404,0.5379971889790538,0.10791165023408517,-0.0011318519663170029,0.022015569079798316,0.641534500617354,-0.008810227847778351,0.032118176645448034,0.020833339194786516
1630597346821400255,27.70757014770767,3.161899485824003,0.7167416151504804,3.641479793501033,0.559937656998271,0.12861030472262389,-0.0011764983127613674,0.0265641870250037,0.6423809665957543,-0.004670290612569584,-0.006416248481236186,0.0653973258213319
1630597346925072255,28.08251608300994,3.221425977335398,0.7294140047231266,3.5925048042890086,0.6090127336405615,0.11776935630054815,-0.0037918648940787076,0.028741641968320956,0.6423140037240921,0.015335796113669552,-0.01863180247243489,-0.001623156267571299
1630597347028738589,28.455147459072684,3.2836691955971156,0.7389712153871761,3.6133614368510374,0.5469604807107206,0.06913967504344322,-0.0011576902989503836,0.03257559399971163,0.6411328017101829,0.001752889150338142,0.0032851399191863567,0.027035876821007575
1630597347132406250,28.831585068940523,3.3389411968716973,0.7439160400575504,3.643884607816134,0.5436795288037406,0.037245365358885785,-0.005500946528405836,0.029887159999480342,0.6409888973311484,0.0015236155927867067,0.029817850145414226,-0.02524445342814642
1630597347236045930,29.205984379497902,3.3956891908566966,0.7449429243751696,3.57933701810042,0.5468076236109327,-0.04804028022052216,-0.006288948342390692,0.028323446459450934,0.6407555645416951,0.0046573854013524174,0.006563453443958901,0.027550054200201735
1630597347339695585,29.577167634376455,3.4520466442433255,0.7466133497134702,3.5795200025775022,0.5508731087642428,0.08707854610756523,-0.008663874256962283,0.026679838068412606,0.6399144466266218,0.01762748491652403,0.006795315553898764,0.0004457577161716352
1630597347443346255,29.950916213084625,3.5122266235319852,0.7598951896464226,3.61383234357344,0.6211696658099058,0.16143969838771025,-0.006386846968015444,0.020252417120756948,0.6384729655598842,0.015690733316216107,0.02718809200285449,-0.11002723712423132
1630597347547079295,30.323560697650738,3.575751203353311,0.7763488193972987,3.5600720945518147,0.6125754821542584,0.1399072339977696,-0.0044640082645713425,0.012337615232120963,0.638429168257652,-0.007993802644894962,0.03816377207532547,-0.023714966728002627
1630597347650817259,30.69025682154964,3.643557975598253,0.7895688760623027,3.4860485069822618,0.6767854591455957,0.09981440627822706,0.0013515294311842105,0.006572561991133913,0.6387111131753231,0.002439843436330479,-0.015729409403750574,-0.09939533764278616
1630597347754527540,31.0455712736789,3.7065741997614428,0.7976278815484845,3.3684923535349958,0.5218329350958949,0.04392178678096264,0.0043002526793729035,0.007153228186587978,0.6390985493664545,0.0015829126180948304,-0.017937949312245908,0.06156192832292351
1630597347858334300,31.391440276406847,3.758897819608232,0.7995490276913496,3.2796678808096718,0.512248022985568,0.010363700664757364,0.0011985205355978894,0.01304650341067781,0.6387999694800575,-0.0014986707121340966,-0.06901646128878597,0.044751859131035694
1630597347962135300,31.73449601716391,3.8086662039407355,0.800336949585705,3.3346748149696626,0.47564909425615964,0.000932363089816161,-0.0020171964901906122,0.020103986527450664,0.6389973009385477,-0.011069712267435357,-0.02429769515390767,0.044126692714088415
1630597348065854915,32.082545939914255,3.8609475600057306,0.8012708087414622,3.362291138340962,0.5338166070936367,0.025992556717966173,-0.004039074783725908,0.021362048140444383,0.6400942093043133,-0.008001753825083276,-0.01852862187017956,0.0008138029256420931
1630597348169580539,32.43243036192621,3.915258381974257,0.8032395257079912,3.3798904502142135,0.5232934962842448,0.01638593866218864,-0.004990070288092406,0.02129977218152086,0.6411252146637885,-0.0135650065603874,0.012484716427717103,0.006054833651629847
1630597348273406300,32.782076644064226,3.9715554946681064,0.8046414536223188,3.3532325034180275,0.569287702403261,0.004437067384282036,-0.004743584850234097,0.02123744098991405,0.6421632997645215,-0.00851706998648909,-0.03578884296475057,-0.008800788014841075
1630597348377212539,33.12958936678662,4.032983683507168,0.8049600347341392,3.346759514511841,0.6130065800601837,0.009550868963647484,-0.0010714503621414536,0.02347761422759991,0.6432488969171826,-0.008232196954922319,-0.04272105733238666,-0.021026225150228485
1630597348480960585,33.48024995118113,4.09437738784261,0.8103506457591638,3.4106395725758882,0.5629769320407674,0.09117121868424037,0.002123101420145314,0.0226993147764737,0.6438436990556833,0.0017778443669421076,0.008846041590716325,-0.021770701886110227
1630597348584687540,33.83667503111525,4.150467130153001,0.8210401110168692,3.4501520625436206,0.5330836224084532,0.11724866165729787,0.002584221179265167,0.017987583617931707,0.6438804447588536,-0.00930302677636223,0.0530531072318362,-0.034096800872805255
1630597348688427585,34.19515260134101,4.205197986988181,0.8337976637738279,3.441556924809989,0.5233598242148322,0.10113161875167007,0.003061121872511435,0.012058535484317559,0.6449405890751387,-0.015088009981949663,0.029902360520084017,-0.02742585088616712
1630597348792086585,34.548826294389094,4.257863022753228,0.8402580345718552,3.387777781634242,0.497126640515621,0.025182390533973906,0.0022297836498428214,0.011069552954950336,0.6458114131222674,-0.002887763787202348,-0.008242673752117334,0.009489550210898283
1630597348895728240,34.901184442547574,4.307066864255143,0.8407968248801243,3.419452272351374,0.4511484363797302,-0.014538254458363722,-0.0004826971620750349,0.012644413765606564,0.6458491481227915,-0.00026366591491050164,0.03170793412229348,0.04121755954447316
1630597348999368259,35.257965645680336,4.354458477600747,0.8391385278212403,3.4659935091501435,0.4797459371683085,-0.016006720685230458,-0.004343029068211064,0.012489871764767863,0.6463758145646742,-0.015514872212075731,0.016172288944183107,0.013559361970206378
1630597349102997915,35.6225131200398,4.40332936504101,0.8375340636833036,3.5613938634672744,0.489441838054416,-0.010411464333026307,-0.008028892427419953,0.00848350168409893,0.6484181644291961,-0.02364550452264197,0.0666602813611552,-0.03560072066341864
1630597349206700300,35.99145121019351,4.455222291591307,0.8382421657443749,3.5552238193473675,0.4767435155346547,0.020697688438197012,-0.008376969996432029,0.0033873738504445025,0.6497423289987561,-0.0055408805142646,0.05868326076704129,0.014543370490459947
1630597349310385915,36.36028818772679,4.503832896267332,0.8400335026883582,3.5499367508041844,0.4614112126775324,0.020184450981885774,-0.013630956944297614,7.20360024694917e-05,0.6497185776340799,0.004472853694728774,0.07207565868256037,0.05107608687097272
1630597349413999590,36.72580051594544,4.561647049779054,0.8427646932439625,3.5138751834163124,0.5807990853302508,0.037762430610826646,-0.010456553123689668,0.0009111641181082543,0.6503590814276498,-0.01612167014123259,0.009913369858173206,0.032432343154766334
1630597349517633255,37.089551266982895,4.62592059803721,0.8483342644657559,3.518784423821329,0.6172953509062805,0.058551607096397534,-0.006079069175843715,0.0027453035394875264,0.6527117933795298,-0.012192394683711067,-0.019385529311781585,0.00024550322057960254
1630597349621282249,37.45428935840448,4.688819140680949,0.8532963157818827,3.5269529279562537,0.5666467867542693,0.0320921511974888,-0.0014006782727687952,0.0055508598255147226,0.6528820690041575,0.00923172300617784,-0.022240251340301238,-0.009419955523542186
1630597349724922924,37.82024596885647,4.743345169641264,0.8544522918704541,3.5313408456686117,0.48760011048483787,-0.011742332763011704,-0.001438670232969546,0.009019104097437692,0.6521077973809983,0.0052366769256307994,-0.037779289561834115,0.05299056672210189
1630597349828643539,38.187665463405615,4.789546358956848,0.8491971884747767,3.559837650061308,0.40031419292225245,-0.07582440635035063,-0.005883549379358443,0.0139179678086037,0.6518165863019497,-0.006711656262956295,0.03439923575070362,0.07453301831523385
1630597349932371250,38.559741773774306,4.832081292578842,0.8432201482735965,3.6158575769470014,0.417596995587179,-0.041273256551358765,-0.01341445645951476,0.01744126423068928,0.6520274285509375,-0.006144597935014193,0.04107070875347163,0.07031962240794172
1630597350036076539,38.937630554395994,4.879488601341151,0.841486452270552,3.66835471114106,0.5050850030150876,0.01144588064008038,-0.01759711923487371,0.01746519054744911,0.6524999872632629,-0.01394394122292764,0.0279794758004549,0.0019568971488394832
1630597350139877540,39.319675530245824,4.936648772344673,0.8454989172487071,3.688208851678296,0.6147440893042768,0.07426792496953873,-0.01668548234200093,0.016065571808228003,0.6536571466873962,-0.010370601167607402,-0.020084654064318752,-0.0573352115653082
1630597350243598925,39.70261916483035,5.003485955227142,0.8538424802437852,3.688781617691785,0.6523114759700366,0.07664272880685603,-0.009061292352370073,0.014023199417680054,0.6544064959452898,-0.008942343635229227,-0.019586654187523506,-0.05831124534984172
1630597350347314965,40.085992787784676,5.071397248345768,0.8617792807150755,3.7053046164489447,0.6636661961695937,0.0676530207537135,-0.003701335798227062,0.0123305349977021,0.6549577868948377,-0.0006551641462538738,-0.024288481642458098,-0.06159772357468013
1630597350451127300,40.47132280367235,5.1361816899545305,0.8671288307728289,3.719198171565102,0.5768490230989789,0.038722777872134045,0.0015409505148736217,0.010530652594350114,0.6551829123751894,-0.005494158550734269,0.0017260720738369937,-0.00816653933196519
1630597350554845590,40.85749195418628,5.190875874493923,0.8692276645988594,3.7298299241193487,0.48595508102900403,0.004422570162463284,0.0004126440492255838,0.009283731602510429,0.65577138830748,-0.004226972541726055,0.023285275835674323,0.006928716032769818
1630597350658581300,41.24483790237857,5.239194682981924,0.8693837744650434,3.73509164094495,0.4540240819655786,-0.0016085781814795012,-0.0030245285697510942,0.008555419248883011,0.6563621974739253,-0.007533273091801077,0.01744440661256442,0.03230391434216756
1630597350762377300,41.63379233014948,5.287655664352643,0.8692149303165049,3.756383237985095,0.4629499988508757,0.0007310047091173101,-0.006145504833751248,0.008078670368077977,0.656826672604073,-0.003531921381611109,0.04012391119873873,0.03581374032365176
1630597350866075924,42.02324583204696,5.341257027012232,0.8711523837091834,3.751493399645187,0.5846219437568648,0.02846371903376384,-0.007132204532400496,0.007347029961590976,0.6573382608771389,-0.005035447548193826,-0.02697796248017858,-0.025856541104716635
1630597350969710255,42.41319864397699,5.401275595397049,0.8749357294400932,3.772714586662592,0.5807293734375456,0.03373582780991061,-0.004760425336333992,0.006755323993696136,0.6583162466801399,-0.01119575312385199,0.005809706795316891,-0.015963461497153206
1630597351073430209,42.804054741701094,5.464556698768095,0.8772887962694742,3.7645556393012614,0.6158606256907608,0.00531790905546708,0.00020622801457334755,0.006410889351711485,0.6593320701578833,-0.008187807330921058,-0.037533175894922145,-0.04249308768046647
1630597351177164595,43.19589634956819,5.524572530410777,0.8769178208817192,3.7885664545925066,0.5439604589457313,-0.011237112935733502,0.002916763911271231,0.0063182894029067,0.6605267232572796,-0.008835155907837651,0.002084552994830663,-0.015941301213685838
1630597351280805924,43.588596284425144,5.576102059858117,0.8762813683892037,3.7813582202560645,0.44471672069547724,-0.006845240327921695,0.0021151038430092346,0.005434385862178457,0.662116357833108,-0.025346672520567347,0.022995634422773362,0.03247659711713502
1630597351384446580,43.98129199453217,5.621407578769645,0.8759533375409427,3.790199621031616,0.43631462170183605,-0.010478763226660368,-0.0016543054715591335,0.004720493863327141,0.6649821888061305,-0.030085878177582244,0.026236222671966767,0.018237466786740146
1630597351488088580,44.37359956495443,5.668159609106456,0.8762686846026513,3.781786617108255,0.46893308945823364,0.018645690942200276,-0.0037338679796186046,0.0037863977206665607,0.6677952191771694,-0.024763120722415904,0.020341830110213413,0.0013284094883024115
1630597351591720915,44.76392565559302,5.71970900825812,0.878180741282356,3.7568089902288926,0.5077646358253852,0.028150786065066283,-0.002457717501905726,0.003173086880532469,0.6701459830022226,-0.02059442580865373,-0.00404745266534143,-0.013891929960178004
1630597351695357594,45.15199348384651,5.772673861933906,0.8799061740779703,3.736074079181674,0.5192968518674206,0.001930538374121526,-0.0006766436688072223,0.003296330481012921,0.6726244930458289,-0.01985455948399114,-0.022176823136575756,-0.01675662957527268
1630597351798985924,45.53864449547441,5.824761899471771,0.8792488184262361,3.7200751606109366,0.4796095122698701,-0.017192038591717935,0.001901042128389673,0.0032847064434503434,0.675138284445145,-0.026201039932257683,-0.006892784355784081,-0.001963043474525673
1630597351902694539,45.92317446772063,5.87109965224202,0.8774354090883455,3.694294724787232,0.4091001384907452,-0.010704304087802492,0.0013986920008157173,0.003823972320404409,0.6774783180976789,-0.021903876438591683,0.012305707256720016,0.023470544255578332
1630597352006411250,46.30564706955544,5.911723967255996,0.8774468839249516,3.676032648817431,0.37973607569766044,0.002452335703138443,-0.000845423447632639,0.0034237595028905415,0.6792555135056054,-0.013459717770933953,0.011956608681615763,0.01299203270016034
1630597352110127539,46.685024752856116,5.951091120363967,0.8769295006510991,3.6379047474732116,0.39046530616447594,-0.008804983388365589,-0.003441581436469023,0.002952285544519662,0.6810095663594042,-0.018023130208280322,0.015874248612840553,0.0111116667214162
1630597352213867595,47.05920493393846,5.993143003444155,0.8768700684596089,3.5795454788909176,0.4113350962047643,0.0038219702661419956,-0.0046086026036773085,0.002711920281853132,0.6827972011592647,-0.014147889224947155,0.011383390773821282,0.014938631249428333
1630597352317617300,47.42711815759741,6.037378676765283,0.8782614198621645,3.516203836643716,0.41878312299084824,0.01783752162689635,-0.003358915742079575,0.0028374975815237883,0.6840261253306609,-0.011810746048441432,0.007532562531391343,-0.0076620791796916535
1630597352421328585,47.78814311075728,6.077764853241815,0.8792713097825635,3.4366565662280824,0.3610703800608209,-0.00930936650071956,-0.0043302480508900934,0.0019393468490278309,0.6850455837219458,-0.013033001382425333,0.028572543073408938,0.02780421282785526
1630597352525046300,48.140835050882856,6.112480025166077,0.8775102304416866,3.355031281539491,0.31225672296830526,-0.020618519621970022,-0.007272305497773202,0.0005932962317639685,0.6860631343675498,-0.003846509740368945,0.007471764740992413,0.004423977996087616
1630597352628759595,48.483330634665094,6.144046814191222,0.8761710540869323,3.245541677723616,0.33065467494117085,0.0010468377671967429,-0.011675949099888394,-0.0011834952008581822,0.6853752893946317,0.016626038418109133,0.014006092602696163,-0.008835895295011817
1630597352732467539,48.81290806492265,6.183224904678566,0.8774048059732166,3.118565309981099,0.41311515601249527,0.012346969970063655,-0.011028750845545738,-0.0012482549161774604,0.6831236580704094,0.025579283707630143,-0.01241865512202937,-0.0026412129587669274
1630597352836198255,49.13052891716077,6.230420908339202,0.8781260972179085,3.0120677364585835,0.48373516304379577,0.003812038426209263,-0.007502279750291048,0.000718371790806496,0.6811903431046684,0.018208738398017656,-0.055664130885264396,-0.012934832249525855
1630597352939850250,49.44388478773915,6.284944416264767,0.8772697501863902,3.025654383258356,0.5471719672688796,-0.013484964860108944,0.0015354741200814387,0.0025999391304681032,0.6790981274326371,0.03001605986728288,-0.08323587457628323,-0.0864717488321582
1630597353043586300,49.75860449136994,6.335199123738228,0.8761096918538116,3.040481385456424,0.42336981293049386,-0.004187911220965947,0.006635195637680439,0.0014765216072003073,0.6758940720738655,0.030799964988381237,0.014033917570598657,-0.02269105375156933
1630597353147309579,50.07326143281823,6.373341928742325,0.876089974504175,3.0266955677160343,0.30573585246816926,0.0008541461907270251,0.005412254917800335,-0.0008805290144054912,0.6736782238270115,0.013282550743315899,0.03747935149873496,0.026655977695132543
1630597353250955584,50.386361237470126,6.398814722802324,0.8749633674440911,3.0102505790191105,0.20991019191679947,-0.019563796025853848,-0.002734850700025675,-0.0026698053137960386,0.6722652146262824,0.018445674511556532,0.06653984311488977,0.05941627845906081
1630597353354658874,50.69674145382092,6.423229079275822,0.8726387994765901,2.978560500788788,0.2626310031836857,-0.027346243295696526,-0.010565187453415305,-0.0030005236528802704,0.6700914788917915,0.02453070610885572,0.02974774747067021,0.0495685938246232
1630597353458368585,51.004878835670986,6.456351911869453,0.8709336530590925,2.9638777362970705,0.38404349457921827,-0.0018598748673703293,-0.015133562505984586,-0.0031081838268356273,0.6682012250721561,0.012134146842401737,0.015783462109867193,0.01655736789146757
1630597353562011584,51.310315958857196,6.503407459154316,0.8721632365022866,2.9310642520028334,0.5030311611585188,0.015246792662651906,-0.012416589311444745,-0.003389250967600947,0.6678648488031563,-0.0006440856467146336,-0.029839090575680727,-0.03333695592191778
1630597353665757300,51.61473086939315,6.554514698847201,0.874066286931099,2.9406720228296352,0.4707937796482993,0.01815591939654755,-0.007850466252382839,-0.003921890841756089,0.6666952765228438,0.018295762814981076,-0.005627471890755596,-0.03879630197035162
1630597353769474254,51.91853630029194,6.601949154471188,0.8733915918584089,2.9006794907593307,0.47000596689662283,-0.05123245207456391,-0.005978834494833736,-0.004870583478216369,0.6639939424222968,0.026106211243129646,-0.02766619709836241,-0.017995655794980827
1630597353873195540,52.21791367005475,6.648763519008531,0.8680282674463733,2.872123107623754,0.44868036814923645,-0.05018420328042525,-0.005081315215389614,-0.00293660644296488,0.6617669866852371,0.025227872616752675,-0.03127170966197061,-0.012438673461136428
1630597353976918590,52.5157394160317,6.693299675728437,0.8633379676522721,2.876634567199372,0.41579701581633455,-0.03234628267074682,-0.005432410090789601,-0.0005870144152399884,0.6572588422527799,0.05796275219088585,-0.006618953877609807,0.015283610328847261
1630597354080550590,52.814940257642284,6.734020611627056,0.8607630024275102,2.896866797681509,0.3756863669505517,-0.013085353846619617,-0.008392340243805679,8.665646921772588e-05,0.6508912837400607,0.057394939093968686,0.03922718532340578,0.040160269050419264
1630597354184274540,53.11607784479782,6.774796974712494,0.859435488991372,2.906702658716453,0.4191421281045559,-0.014269782712405484,-0.01298853636019092,-0.0006291690540856903,0.6465245046149403,0.03209084861022034,0.009841825424952995,0.0270447491992823
1630597354288014255,53.41831771610859,6.8195911065721,0.8572245143611276,2.92781777535476,0.4397803313208726,-0.024192759817529712,-0.015524725659446391,-0.00032901041920732757,0.6431818719180833,0.039808653098957016,0.01716488248284042,0.016487147445133903
1630597354391649254,53.72275066702521,6.867174795636694,0.8555591042208106,2.948937367520929,0.48472226413706165,-0.006407747593743038,-0.017926576206317057,-0.0005812805197273507,0.6378138761593248,0.06268248009593191,0.007077114320487421,0.012551263727411215
1630597354495359539,54.03015739254962,6.920322545536051,0.8552030807966,2.9761868936566915,0.5417742094370201,-0.0080563320483168,-0.01808338814300153,-0.0009081531488289963,0.6312478872491218,0.05897439372545458,-0.00823377111665474,-0.009163983920735792
